[{"name": "TIMEZONE(PLAZA SINGAPURA)", "address": "#07-02/03  68 ORCHARD ROAD,SINGAPORE 238839", "location": [1.3006193000000066, 103.8449113635071]}, {"name": "VIRTUALAND BUGIS+", "address": "201 Victoria Street , #05-04/05/06 Bugis+, Singapore 188067", "location": [1.2998, 103.85455]}, {"name": "PACO FUNWORLD(KALLANG WAVE MALL)", "address": "1 Stadium Place 01-59102 Singapore 397628", "location": [1.3025249, 103.8736219]}, {"name": "COW PLAY COW MOO", "address": "1 Pasir Ris Close,#04-102,Singapole 519599", "location": [1.3769815, 103.9544216]}, {"name": "VIRTUALAND(NEX)", "address": "23, SERANGOON CENTRAL #04-65 NEX SINGAPORE", "location": [1.350771369527377, 103.87222576571082]}, {"name": "PLAY UNITED", "address": "10 tampines Central 1 #05-18/19/20 Singapore 529536", "location": [1.354212, 103.9450352]}, {"name": "COW PLAY COW MOO(SUNTEC CITY)", "address": "Sun Tec City 3Temasek Boulevard, 02-408/409,Singapore 038983", "location": [1.29503, 103.8583026]}, {"name": "PACO FUNWORLD(BUGIS PLUS)", "address": "Bugis Plus201 VictoriaStreet,#05-07Singapore", "location": [1.2996018, 103.8542325]}, {"name": "TIMEZONE ORX", "address": "437 Orchard Road. #B1-01/05, #B1-07/18, Common Area, Orchard", "location": [1.3033191, 103.8322954]}, {"name": "TIMEZONE(WESTGATE)", "address": "3 Gateway Drive,#B1-45/46 Westgate Singapore 608532", "location": [1.3345, 103.74275]}, {"name": "TIMEZONE JURONG POINT", "address": "1 Jurong West Central 2, #02-45, Singapore 648886", "location": [1.3399257, 103.7062886]}]