[{"name": "TIMEZONE(PLAZA SINGAPURA)", "address": "#07-02/03  68 ORCHARD ROAD,SINGAPORE 238839", "location": [1.3006193000000066, 103.8449113635071]}, {"name": "VIRTUALAND BUGIS+", "address": "201 Victoria Street , #05-04/05/06 Bugis+, Singapore 188067", "location": [1.2998, 103.85455]}, {"name": "PACO FUNWORLD(KALLANG WAVE MALL)", "address": "1 Stadium Place 01-59102 Singapore 397628", "location": [1.3025249, 103.8736219]}, {"name": "COW PLAY COW MOO", "address": "1 Pasir Ris Close,#04-102,Singapole 519599", "location": [1.3769815, 103.9544216]}, {"name": "VIRTUALAND(NEX)", "address": "23, SERANGOON CENTRAL #04-65 NEX SINGAPORE", "location": [1.350771369527377, 103.87222576571082]}, {"name": "HEART BEAT BEDOK MALL", "address": "11 Bedok North Street1", "location": [1.3269753, 103.9321493]}, {"name": "ANG MO KIO HUB", "address": "53 ANG MO KIO AUE 3 HOH 06 569933", "location": [1.3691149, 103.8454342]}, {"name": "PLAY UNITED", "address": "10 tampines Central 1 #05-18/19/20 Singapore 529536", "location": [1.354212, 103.9450352]}, {"name": "TIMEZONE(CAUSEWAY POINT)", "address": "1 WOODLANDS SQUARE #07-02CAUSEWAY POINT SINGAPORE", "location": [1.4361030739343446, 103.7859563747993]}, {"name": "TIMEZONE(NORTH POINT)", "address": "930 YISHUN AVE.2 #03-30,NORTHPOINT, SINGAPORE", "location": [1.4293518119672943, 103.83577637119868]}, {"name": "LOT1 SHOPPER'S MALL", "address": "No.21,Choa Chu Kang Ave 4,#5-01/02/03,Singapore 689812", "location": [1.3852086, 103.7449371]}, {"name": "FAT CAT(HILLION)", "address": "Hillion Mall #01-28.17 Petir Rd, Singapore 678278", "location": [1.3784819, 103.7632117]}, {"name": "TIMEZONE(OUR TAMPINES HUB)", "address": "51TAMPINES AVENUE4#B1-13OUR TAMPINES HUB SINGAPORE 529684", "location": [1.3459383, 103.9382917]}, {"name": "ZONE-X(EAST POINT MALL)", "address": "EastPoint Mall 3 Simei Street 6,B1-01102 Singapore 528833l", "location": [1.3427145, 103.9530415]}, {"name": "COW PLAY COW MOO(SUNTEC CITY)", "address": "Sun Tec City 3Temasek Boulevard, 02-408/409,Singapore 038983", "location": [1.29503, 103.8583026]}, {"name": "PACO FUNWORLD(BUGIS PLUS)", "address": "Bugis Plus201 VictoriaStreet,#05-07Singapore", "location": [1.2996018, 103.8542325]}, {"name": "TIMEZONE PARKWAY PARADE", "address": "80,MARINE PARADE RD,#B1-17 PARKWAY PARADE SINGAPORE 449269", "location": [1.30172, 103.90524]}, {"name": "TIMEZONE(WESTGATE)", "address": "3 Gateway Drive,#B1-45/46 Westgate Singapore 608532", "location": [1.3345, 103.74275]}, {"name": "TIMEZONE JURONG POINT", "address": "1 Jurong West Central 2, #02-45, Singapore 648886", "location": [1.3399257, 103.7062886]}]